{"flags": [{"state": "new", "name": "Tushaar Sonkar Durg, CHhattisgarh, India", "id": 285, "tagline": "Rise with a beauty", "image": "/media/flags/2015/July/24/285.png", "random": 1, "thumbnail": "/media/flags/2015/July/24/285.png.thumb", "location": ""}, {"state": "new", "name": "Sandeep Ture (Jasper) from Gulbarga,Karnataka", "id": 284, "tagline": "itz a magical hole pick wat u wish by putn hand Ne", "image": "/media/flags/2015/July/12/284.png", "random": 5, "thumbnail": "/media/flags/2015/July/12/284.png.thumb", "location": ""}, {"state": "new", "name": "Man Singh Nirwan", "id": 283, "tagline": "we all together. ", "image": "/media/flags/2015/June/17/283.png", "random": 5, "thumbnail": "/media/flags/2015/June/17/283.png.thumb", "location": ""}, {"state": "new", "name": "Lynch School 2nd Grade Winchester MA USA", "id": 282, "tagline": "Mermaid to help you feel better", "image": "/media/flags/2015/June/15/282.png", "random": 3, "thumbnail": "/media/flags/2015/June/15/282.png.thumb", "location": ""}, {"state": "new", "name": "Lynch School 2nd Grade Winchester MA USA", "id": 281, "tagline": "Love Nepal", "image": "/media/flags/2015/June/15/281.png", "random": 4, "thumbnail": "/media/flags/2015/June/15/281.png.thumb", "location": ""}, {"state": "new", "name": "Winchester High School (MA), USA", "id": 280, "tagline": "Always Keep smiling", "image": "/media/flags/2015/June/15/280.png", "random": 6, "thumbnail": "/media/flags/2015/June/15/280.png.thumb", "location": ""}, {"state": "new", "name": "Lynch School 2nd Grade Winchester MA USA", "id": 279, "tagline": "Rainbow of hope Smile Love", "image": "/media/flags/2015/June/15/279.png", "random": 4, "thumbnail": "/media/flags/2015/June/15/279.png.thumb", "location": ""}, {"state": "new", "name": "Lynch School 2nd Grade Winchester MA USA", "id": 278, "tagline": "Make new Nepal", "image": "/media/flags/2015/June/15/278.png", "random": 1, "thumbnail": "/media/flags/2015/June/15/278.png.thumb", "location": ""}, {"state": "new", "name": "Lynch School 2nd Grade Winchester MA USA", "id": 277, "tagline": "", "image": "/media/flags/2015/June/15/277.png", "random": 6, "thumbnail": "/media/flags/2015/June/15/277.png.thumb", "location": ""}, {"state": "new", "name": "Lynch School 2nd Grade Winchester MA USA", "id": 276, "tagline": "Love Nepal", "image": "/media/flags/2015/June/15/276.png", "random": 3, "thumbnail": "/media/flags/2015/June/15/276.png.thumb", "location": ""}], "page": "1", "next": true}
