{"flags": [{"state": "new", "name": "Winchester High School (MA), USA", "id": 185, "tagline": "We pray for the people of Nepal", "image": "/media/flags/2015/June/01/185.png", "random": 4, "thumbnail": "/media/flags/2015/June/01/185.png.thumb", "location": ""}, {"state": "new", "name": "Winchester High School (MA), USA", "id": 184, "tagline": "All the best for rebuilding Nepal", "image": "/media/flags/2015/June/01/184.png", "random": 5, "thumbnail": "/media/flags/2015/June/01/184.png.thumb", "location": ""}, {"state": "new", "name": "Winchester High School (MA), USA", "id": 183, "tagline": "Best wishes to Nepal", "image": "/media/flags/2015/June/01/183.png", "random": 5, "thumbnail": "/media/flags/2015/June/01/183.png.thumb", "location": ""}, {"state": "new", "name": "Winchester High School (MA), USA", "id": 182, "tagline": "Hope and love for the people of Nepal", "image": "/media/flags/2015/June/01/182.png", "random": 6, "thumbnail": "/media/flags/2015/June/01/182.png.thumb", "location": ""}, {"state": "new", "name": "Winchester High School (MA), USA", "id": 173, "tagline": "Thinking of Nepal", "image": "/media/flags/2015/June/01/173.png", "random": 6, "thumbnail": "/media/flags/2015/June/01/173.png.thumb", "location": ""}, {"state": "new", "name": "Winchester high school, MA", "id": 172, "tagline": "Best wishes to Nepal", "image": "/media/flags/2015/June/01/172.png", "random": 3, "thumbnail": "/media/flags/2015/June/01/172.png.thumb", "location": ""}, {"state": "new", "name": "", "id": 170, "tagline": "Prayers for all affected by the earthquakes", "image": "", "random": 6, "thumbnail": "", "location": ""}, {"state": "new", "name": "Nikhil, class 9,Govt. inter college, miyanwala", "id": 169, "tagline": "New nepal after disaster,dehradun, uttarakhand", "image": "/media/flags/2015/May/26/169.png", "random": 2, "thumbnail": "/media/flags/2015/May/26/169.png.thumb", "location": ""}, {"state": "new", "name": "Arti Bhandari, 8th std. Dehradun, Idnia", "id": 168, "tagline": "Ideas for rebuilding Nepal- Solar, Compost ", "image": "/media/flags/2015/May/26/168.png", "random": 2, "thumbnail": "/media/flags/2015/May/26/168.png.thumb", "location": ""}, {"state": "new", "name": "Mohan Chauhan, 7th std. Dehradun, India", "id": 167, "tagline": "Save environment, Save Nepal", "image": "/media/flags/2015/May/26/167.png", "random": 5, "thumbnail": "/media/flags/2015/May/26/167.png.thumb", "location": ""}], "page": "11", "next": true}
