{"flags": [{"state": "new", "name": "Tanka Dahal, Seattle WA USA", "id": 143, "tagline": "Stay strong, we will rebuild it .....", "image": "/media/flags/2015/May/20/143.png", "random": 2, "thumbnail": "/media/flags/2015/May/20/143.png.thumb", "location": ""}, {"state": "new", "name": "King, Canada", "id": 142, "tagline": "A moment to reflect", "image": "/media/flags/2015/May/20/142.png", "random": 3, "thumbnail": "/media/flags/2015/May/20/142.png.thumb", "location": ""}, {"state": "new", "name": "Shailu Rajbhandari WA, USA", "id": 141, "tagline": "There is always a day new beginning", "image": "/media/flags/2015/May/20/141.png", "random": 1, "thumbnail": "/media/flags/2015/May/20/141.png.thumb", "location": ""}, {"state": "new", "name": "Sailesh Baidya, Redmond, WA", "id": 140, "tagline": "God bless Nepal. Bounce back soon. ", "image": "/media/flags/2015/May/20/140.png", "random": 2, "thumbnail": "/media/flags/2015/May/20/140.png.thumb", "location": ""}, {"state": "new", "name": "Emily, WA", "id": 139, "tagline": "We are sending our love and thoughts to Nepal!", "image": "/media/flags/2015/May/20/139.png", "random": 2, "thumbnail": "/media/flags/2015/May/20/139.png.thumb", "location": ""}, {"state": "new", "name": "Karin, Washington State, USA", "id": 138, "tagline": "", "image": "/media/flags/2015/May/20/138.png", "random": 3, "thumbnail": "/media/flags/2015/May/20/138.png.thumb", "location": ""}, {"state": "new", "name": "Sara, Canada", "id": 137, "tagline": "Thinking of you and your beautiful country", "image": "/media/flags/2015/May/20/137.png", "random": 4, "thumbnail": "/media/flags/2015/May/20/137.png.thumb", "location": ""}, {"state": "new", "name": "Sin Sri, VA", "id": 136, "tagline": "sending lots of love and healing your way", "image": "", "random": 3, "thumbnail": "", "location": ""}, {"state": "new", "name": "WOLAY SHARMA", "id": 135, "tagline": "", "image": "/media/flags/2015/May/20/135.png", "random": 1, "thumbnail": "/media/flags/2015/May/20/135.png.thumb", "location": ""}, {"state": "new", "name": "Bowen Peng Lynch school Winchester ma U.S. A.", "id": 134, "tagline": "Enlightening your hope with our hands.", "image": "/media/flags/2015/May/19/134.png", "random": 2, "thumbnail": "/media/flags/2015/May/19/134.png.thumb", "location": ""}], "page": "14", "next": true}
