{"flags": [{"state": "new", "name": "Vana Narayanan Chennai India", "id": 133, "tagline": "Will Bounce Back - We are with U Always ", "image": "/media/flags/2015/May/19/133.png", "random": 4, "thumbnail": "/media/flags/2015/May/19/133.png.thumb", "location": ""}, {"state": "new", "name": "", "id": 132, "tagline": "Thinking of you from Seattle", "image": "/media/flags/2015/May/19/132.png", "random": 1, "thumbnail": "/media/flags/2015/May/19/132.png.thumb", "location": ""}, {"state": "new", "name": "adela martinez gonzalez", "id": 131, "tagline": "Keep on Smiling! NAMASTE", "image": "/media/flags/2015/May/19/131.png", "random": 3, "thumbnail": "/media/flags/2015/May/19/131.png.thumb", "location": ""}, {"state": "new", "name": "", "id": 130, "tagline": "Life will go on. ", "image": "/media/flags/2015/May/19/130.png", "random": 6, "thumbnail": "/media/flags/2015/May/19/130.png.thumb", "location": ""}, {"state": "new", "name": "Mr. Crabs, Seattle", "id": 129, "tagline": "We're with you here in the Pacific Northwest", "image": "/media/flags/2015/May/19/129.png", "random": 6, "thumbnail": "/media/flags/2015/May/19/129.png.thumb", "location": ""}, {"state": "new", "name": "Sam Patel Cambridge,MA", "id": 128, "tagline": "Prayers for Nepal - Be Strong !", "image": "/media/flags/2015/May/19/128.png", "random": 3, "thumbnail": "/media/flags/2015/May/19/128.png.thumb", "location": ""}, {"state": "new", "name": "Ananda K. Maharjan, Nepal", "id": 127, "tagline": "\"Sabai thikai hunchha\" - everything's gonna be OK", "image": "/media/flags/2015/May/19/127.png", "random": 1, "thumbnail": "/media/flags/2015/May/19/127.png.thumb", "location": ""}, {"state": "new", "name": "SuMoksha, Nepal", "id": 126, "tagline": "Keep Calm & Carry On Nepal!", "image": "/media/flags/2015/May/19/126.png", "random": 6, "thumbnail": "/media/flags/2015/May/19/126.png.thumb", "location": ""}, {"state": "new", "name": "Manoj, Boston", "id": 115, "tagline": "Our thoughts are with you ", "image": "/media/flags/2015/May/17/115.png", "random": 2, "thumbnail": "/media/flags/2015/May/17/115.png.thumb", "location": ""}, {"state": "approved", "name": "", "id": 110, "tagline": "sending much love", "image": "", "random": 1, "thumbnail": "", "location": ""}], "page": "15", "next": true}
