{"flags": [{"state": "approved", "name": "Preesha, Anushka", "id": 65, "tagline": "Nepal City of Love", "image": "/media/flags/2015/May/04/65.png", "random": 6, "thumbnail": "/media/flags/2015/May/04/65.png.thumb", "location": "Westborough, MA USA"}, {"state": "approved", "name": "Sravani, Sara, Yash", "id": 64, "tagline": "Poster- City of Love", "image": "/media/flags/2015/May/04/64.png", "random": 3, "thumbnail": "/media/flags/2015/May/04/64.png.thumb", "location": "Westborough, MA USA"}, {"state": "approved", "name": "Yash Chopra", "id": 63, "tagline": "Love", "image": "/media/flags/2015/May/04/63.png", "random": 1, "thumbnail": "/media/flags/2015/May/04/63.png.thumb", "location": "Westborough, MA USA"}, {"state": "approved", "name": "Sara Sharma", "id": 62, "tagline": "Heart goes to you", "image": "/media/flags/2015/May/04/62.png", "random": 1, "thumbnail": "/media/flags/2015/May/04/62.png.thumb", "location": "Westborough, MA USA"}, {"state": "approved", "name": "Samikha, 2y", "id": 61, "tagline": "Home for Nepal", "image": "/media/flags/2015/May/04/61.png", "random": 5, "thumbnail": "/media/flags/2015/May/04/61.png.thumb", "location": "Westborough, MA USA"}, {"state": "approved", "name": "Yash", "id": 60, "tagline": "Love", "image": "/media/flags/2015/May/04/60.png", "random": 2, "thumbnail": "/media/flags/2015/May/04/60.png.thumb", "location": "Westborough, MA USA"}, {"state": "approved", "name": "Sid", "id": 59, "tagline": "Wishes of peace happiness and love", "image": "/media/flags/2015/May/04/59.png", "random": 5, "thumbnail": "/media/flags/2015/May/04/59.png.thumb", "location": "Westborough, MA USA"}, {"state": "approved", "name": "Tanushree Shah", "id": 58, "tagline": "", "image": "/media/flags/2015/May/04/58.png", "random": 4, "thumbnail": "/media/flags/2015/May/04/58.png.thumb", "location": "Westborough, MA USA"}, {"state": "approved", "name": "Eva Chaudhury", "id": 57, "tagline": "", "image": "/media/flags/2015/May/04/57.png", "random": 4, "thumbnail": "/media/flags/2015/May/04/57.png.thumb", "location": "Westborough, MA USA"}, {"state": "approved", "name": "Sathvik", "id": 56, "tagline": "", "image": "/media/flags/2015/May/04/56.png", "random": 5, "thumbnail": "/media/flags/2015/May/04/56.png.thumb", "location": "Westborough, MA USA"}], "page": "20", "next": true}
