{"flags": [{"state": "new", "name": "Lynch School 2nd Grade Winchester MA USA", "id": 255, "tagline": "Good luck dragon", "image": "/media/flags/2015/June/15/255.png", "random": 4, "thumbnail": "/media/flags/2015/June/15/255.png.thumb", "location": ""}, {"state": "new", "name": "Lynch School 2nd Grade Winchester MA USA", "id": 254, "tagline": "Best of luck", "image": "/media/flags/2015/June/15/254.png", "random": 1, "thumbnail": "/media/flags/2015/June/15/254.png.thumb", "location": ""}, {"state": "new", "name": "Lynch School 2nd Grade Winchester MA USA", "id": 253, "tagline": "Good luck dragon", "image": "/media/flags/2015/June/15/253.png", "random": 4, "thumbnail": "/media/flags/2015/June/15/253.png.thumb", "location": ""}, {"state": "new", "name": "Lynch School 2nd Grade Winchester MA USA", "id": 252, "tagline": "Best of luck", "image": "/media/flags/2015/June/15/252.png", "random": 5, "thumbnail": "/media/flags/2015/June/15/252.png.thumb", "location": ""}, {"state": "new", "name": "Lynch School 2nd Grade Winchester MA USA", "id": 251, "tagline": "Please get better Pizza, Ice cream, hamburger", "image": "/media/flags/2015/June/15/251.png", "random": 3, "thumbnail": "/media/flags/2015/June/15/251.png.thumb", "location": ""}, {"state": "new", "name": "Lynch School 2nd Grade Winchester MA USA", "id": 250, "tagline": "A beach home", "image": "/media/flags/2015/June/15/250.png", "random": 3, "thumbnail": "/media/flags/2015/June/15/250.png.thumb", "location": ""}, {"state": "new", "name": "Lynch School 2nd Grade Winchester MA USA", "id": 249, "tagline": "We love Nepal", "image": "/media/flags/2015/June/15/249.png", "random": 4, "thumbnail": "/media/flags/2015/June/15/249.png.thumb", "location": ""}, {"state": "new", "name": "Lynch School 2nd Grade Winchester MA USA", "id": 248, "tagline": "We love Nepal. Is the best!", "image": "/media/flags/2015/June/15/248.png", "random": 3, "thumbnail": "/media/flags/2015/June/15/248.png.thumb", "location": ""}, {"state": "new", "name": "Lynch School 2nd Grade Winchester MA USA", "id": 247, "tagline": "House plan for you", "image": "/media/flags/2015/June/15/247.png", "random": 1, "thumbnail": "/media/flags/2015/June/15/247.png.thumb", "location": ""}, {"state": "new", "name": "Lynch School 2nd Grade Winchester MA USA", "id": 246, "tagline": "Good luck dragon", "image": "/media/flags/2015/June/15/246.png", "random": 5, "thumbnail": "/media/flags/2015/June/15/246.png.thumb", "location": ""}], "page": "4", "next": true}
