{"flags": [{"state": "new", "name": "Kindercare, Burlington, MA", "id": 154, "tagline": "Two year olds send their wishes", "image": "/media/flags/2015/May/23/154.png", "random": 4, "thumbnail": "/media/flags/2015/May/23/154.png.thumb", "location": ""}, {"state": "new", "name": "Dr. Sudha Sharma", "id": 153, "tagline": "Flags for Nepal published in Children's newpaper", "image": "/media/flags/2015/May/23/153.png", "random": 1, "thumbnail": "/media/flags/2015/May/23/153.png.thumb", "location": ""}, {"state": "new", "name": "Ulli Mueller, Cambridge, MA", "id": 152, "tagline": "Sending lots of Love from Cambridge, MA", "image": "/media/flags/2015/May/22/152.png", "random": 3, "thumbnail": "/media/flags/2015/May/22/152.png.thumb", "location": ""}, {"state": "new", "name": "Preeti Kumar, DC", "id": 151, "tagline": "Sending Prayers, Peace & Love for Nepal", "image": "/media/flags/2015/May/22/151.png", "random": 6, "thumbnail": "/media/flags/2015/May/22/151.png.thumb", "location": ""}, {"state": "new", "name": "UAE", "id": 150, "tagline": "All the best dear kancha... Kanchi... Daai.", "image": "/media/flags/2015/May/22/150.png", "random": 3, "thumbnail": "/media/flags/2015/May/22/150.png.thumb", "location": ""}, {"state": "new", "name": "Admin", "id": 148, "tagline": "Thanks for helping get past 100 flags", "image": "/media/flags/2015/May/21/148.png", "random": 6, "thumbnail": "/media/flags/2015/May/21/148.png.thumb", "location": ""}, {"state": "new", "name": "Shubham Fitkariwala, Bangalore.", "id": 147, "tagline": "Trust God will help!", "image": "/media/flags/2015/May/21/147.png", "random": 2, "thumbnail": "/media/flags/2015/May/21/147.png.thumb", "location": ""}, {"state": "new", "name": "Ashvini Menon, Hyderabad.", "id": 146, "tagline": "", "image": "/media/flags/2015/May/21/146.png", "random": 3, "thumbnail": "/media/flags/2015/May/21/146.png.thumb", "location": ""}, {"state": "new", "name": "Ayush Bajaj, Hyderabad", "id": 145, "tagline": "Better things are coming..", "image": "/media/flags/2015/May/21/145.png", "random": 5, "thumbnail": "/media/flags/2015/May/21/145.png.thumb", "location": ""}, {"state": "new", "name": "Pen Lewin, Australia", "id": 144, "tagline": "Stay Strong Nepal, we help you rebuild", "image": "/media/flags/2015/May/21/144.png", "random": 1, "thumbnail": "/media/flags/2015/May/21/144.png.thumb", "location": ""}], "page": "13", "next": true}
