{"flags": [{"state": "approved", "name": "Guillaume Bertrand, France", "id": 109, "tagline": "Pray for Nepal", "image": "/media/flags/2015/May/13/109.png", "random": 5, "thumbnail": "/media/flags/2015/May/13/109.png.thumb", "location": ""}, {"state": "approved", "name": "Devin Goetz Columbus, Ohio, USA", "id": 108, "tagline": "School project close to my heart ", "image": "/media/flags/2015/May/11/108.png", "random": 4, "thumbnail": "/media/flags/2015/May/11/108.png.thumb", "location": ""}, {"state": "approved", "name": "Family Avila Rodriguez", "id": 107, "tagline": "Be strong Nepal", "image": "/media/flags/2015/May/11/107.png", "random": 4, "thumbnail": "/media/flags/2015/May/11/107.png.thumb", "location": ""}, {"state": "approved", "name": "Utsav Shrestha", "id": 106, "tagline": "We are hopeful now!", "image": "/media/flags/2015/May/10/106.png", "random": 5, "thumbnail": "/media/flags/2015/May/10/106.png.thumb", "location": ""}, {"state": "approved", "name": "Ananda K. Maharjan, Nepal", "id": 105, "tagline": "Nepal pheri fulnechha :)", "image": "/media/flags/2015/May/10/105.png", "random": 3, "thumbnail": "/media/flags/2015/May/10/105.png.thumb", "location": ""}, {"state": "approved", "name": "quashif qureishi", "id": 104, "tagline": "we are with you", "image": "/media/flags/2015/May/09/104.png", "random": 5, "thumbnail": "/media/flags/2015/May/09/104.png.thumb", "location": ""}, {"state": "approved", "name": "Ananda K. Maharjan, Nepal", "id": 103, "tagline": "Never Ending Peace And Love", "image": "/media/flags/2015/May/09/103.png", "random": 4, "thumbnail": "/media/flags/2015/May/09/103.png.thumb", "location": ""}, {"state": "approved", "name": "Rupinder Singh , Kolkata ", "id": 102, "tagline": "Lets join hands, and #HelpNepal", "image": "/media/flags/2015/May/09/102.png", "random": 5, "thumbnail": "/media/flags/2015/May/09/102.png.thumb", "location": ""}, {"state": "approved", "name": "Rhea Goyal, Dallas TX", "id": 101, "tagline": "We are WITH you NEPAL", "image": "/media/flags/2015/May/08/101.png", "random": 2, "thumbnail": "/media/flags/2015/May/08/101.png.thumb", "location": ""}, {"state": "approved", "name": "Ananda K. Maharjan, Nepal", "id": 100, "tagline": "NEPAL RISES", "image": "/media/flags/2015/May/08/100.png", "random": 6, "thumbnail": "/media/flags/2015/May/08/100.png.thumb", "location": ""}], "page": "16", "next": true}
