{"flags": [{"state": "approved", "name": "Sailendra Manandhar, Grafioffshore, Nepal", "id": 99, "tagline": "We will rise again.", "image": "/media/flags/2015/May/08/99.png", "random": 5, "thumbnail": "/media/flags/2015/May/08/99.png.thumb", "location": ""}, {"state": "approved", "name": "Joey Wong \uff0cChina\uff0cGuangzhou", "id": 98, "tagline": "Pray for Nepal", "image": "/media/flags/2015/May/08/98.png", "random": 2, "thumbnail": "/media/flags/2015/May/08/98.png.thumb", "location": ""}, {"state": "approved", "name": "Joey Wong \uff0cChina\uff0cGuangzhou", "id": 97, "tagline": "Pray for Nepal", "image": "/media/flags/2015/May/08/97.png", "random": 5, "thumbnail": "/media/flags/2015/May/08/97.png.thumb", "location": ""}, {"state": "approved", "name": "Joey Wong \uff0cChina\uff0cGuangzhou", "id": 96, "tagline": "Pray for Nepal", "image": "/media/flags/2015/May/08/96.png", "random": 3, "thumbnail": "/media/flags/2015/May/08/96.png.thumb", "location": ""}, {"state": "approved", "name": "Karan - Hyderabad", "id": 95, "tagline": "Love and Prayers", "image": "/media/flags/2015/May/08/95.png", "random": 2, "thumbnail": "/media/flags/2015/May/08/95.png.thumb", "location": ""}, {"state": "approved", "name": "Rojan", "id": 94, "tagline": "#pray#Workfornepal", "image": "/media/flags/2015/May/08/94.png", "random": 6, "thumbnail": "/media/flags/2015/May/08/94.png.thumb", "location": ""}, {"state": "approved", "name": "Angela, Santa Fe, New Mexico", "id": 93, "tagline": "Love and prayers", "image": "/media/flags/2015/May/08/93.png", "random": 1, "thumbnail": "/media/flags/2015/May/08/93.png.thumb", "location": ""}, {"state": "approved", "name": "", "id": 92, "tagline": "Om Shanti Shanti Shanti ...", "image": "/media/flags/2015/May/08/92.png", "random": 2, "thumbnail": "/media/flags/2015/May/08/92.png.thumb", "location": ""}, {"state": "approved", "name": "Shubash imbu From Katari Udayapur nepal", "id": 91, "tagline": "Pray/Help For Nepal", "image": "/media/flags/2015/May/08/91.png", "random": 4, "thumbnail": "/media/flags/2015/May/08/91.png.thumb", "location": ""}, {"state": "approved", "name": "Arjan KC, Bhaktapur", "id": 90, "tagline": "I am #withnepal", "image": "/media/flags/2015/May/08/90.png", "random": 3, "thumbnail": "/media/flags/2015/May/08/90.png.thumb", "location": ""}], "page": "17", "next": true}
