{"flags": [{"state": "approved", "name": "Ananda K. Maharjan", "id": 89, "tagline": "THANK YOU FROM NEPAL TO THE WORLD", "image": "/media/flags/2015/May/08/89.png", "random": 5, "thumbnail": "/media/flags/2015/May/08/89.png.thumb", "location": ""}, {"state": "approved", "name": "Rhea Goyal, Dallas TX", "id": 88, "tagline": "Peace. Hope. Love", "image": "/media/flags/2015/May/07/88.png", "random": 5, "thumbnail": "/media/flags/2015/May/07/88.png.thumb", "location": ""}, {"state": "approved", "name": "Sigma, Seattle", "id": 87, "tagline": "Sending Hope and Love your way! ", "image": "/media/flags/2015/May/07/87.png", "random": 6, "thumbnail": "/media/flags/2015/May/07/87.png.thumb", "location": ""}, {"state": "approved", "name": "Priya Chopra", "id": 86, "tagline": "Hope for Nepal", "image": "/media/flags/2015/May/07/86.png", "random": 5, "thumbnail": "/media/flags/2015/May/07/86.png.thumb", "location": ""}, {"state": "approved", "name": "Tara from Boston MA", "id": 85, "tagline": "Flowers for you", "image": "/media/flags/2015/May/07/85.png", "random": 6, "thumbnail": "/media/flags/2015/May/07/85.png.thumb", "location": ""}, {"state": "approved", "name": "Katarzyna Romanowska ; Warsaw, Poland", "id": 82, "tagline": "LOVE and pure strenght for Nepal.", "image": "/media/flags/2015/May/07/82.png", "random": 4, "thumbnail": "/media/flags/2015/May/07/82.png.thumb", "location": ""}, {"state": "approved", "name": "Annmarie, Boston", "id": 81, "tagline": "", "image": "/media/flags/2015/May/07/81.png", "random": 6, "thumbnail": "/media/flags/2015/May/07/81.png.thumb", "location": ""}, {"state": "approved", "name": "Annmarie, Boston", "id": 80, "tagline": "The thoughts and prayers of the world are with you", "image": "/media/flags/2015/May/07/80.png", "random": 1, "thumbnail": "/media/flags/2015/May/07/80.png.thumb", "location": ""}, {"state": "approved", "name": "Erica ~ Hartford, CT", "id": 79, "tagline": "Sending strength and courage.... one day at a time", "image": "", "random": 1, "thumbnail": "", "location": ""}, {"state": "approved", "name": "Arman & Alana Rafiee", "id": 78, "tagline": "Wish you Strength and Peace ", "image": "/media/flags/2015/May/06/78.png", "random": 2, "thumbnail": "/media/flags/2015/May/06/78.png.thumb", "location": "Cambridge, MA"}], "page": "18", "next": true}
