{"flags": [{"state": "approved", "name": "Megumi K. H.", "id": 77, "tagline": "", "image": "/media/flags/2015/May/06/77.png", "random": 5, "thumbnail": "/media/flags/2015/May/06/77.png.thumb", "location": "Somerville, MA, USA"}, {"state": "approved", "name": "Concerned Citizen of the World", "id": 76, "tagline": "Hope + Love ", "image": "/media/flags/2015/May/05/76.png", "random": 1, "thumbnail": "/media/flags/2015/May/05/76.png.thumb", "location": "Austin, TX"}, {"state": "approved", "name": "Jen Kelleher", "id": 75, "tagline": "Never give up hope! ", "image": "/media/flags/2015/May/05/75.png", "random": 4, "thumbnail": "/media/flags/2015/May/05/75.png.thumb", "location": "Weymouth, Massachusetts"}, {"state": "approved", "name": "Anne Stanton", "id": 74, "tagline": "May you find hidden strength! ", "image": "/media/flags/2015/May/05/74.png", "random": 6, "thumbnail": "/media/flags/2015/May/05/74.png.thumb", "location": "Washington D.C. "}, {"state": "approved", "name": "Dr. Sudha Sharma", "id": 73, "tagline": "Our children readers tribute to you all", "image": "/media/flags/2015/May/05/73.png", "random": 6, "thumbnail": "/media/flags/2015/May/05/73.png.thumb", "location": "Dehradun, India"}, {"state": "approved", "name": "Anunaya Pandey", "id": 71, "tagline": "Stay Strong Nepal", "image": "/media/flags/2015/May/04/71.png", "random": 2, "thumbnail": "/media/flags/2015/May/04/71.png.thumb", "location": "Cambridge, MA"}, {"state": "approved", "name": "Lucky", "id": 70, "tagline": "", "image": "/media/flags/2015/May/04/70.png", "random": 5, "thumbnail": "/media/flags/2015/May/04/70.png.thumb", "location": "Westborough, MA USA"}, {"state": "approved", "name": "Sravani", "id": 69, "tagline": "", "image": "/media/flags/2015/May/04/69.png", "random": 3, "thumbnail": "/media/flags/2015/May/04/69.png.thumb", "location": "Westborough, MA USA"}, {"state": "approved", "name": "Lucky, Shreeya", "id": 67, "tagline": "Poster for Nepal", "image": "/media/flags/2015/May/04/67.png", "random": 4, "thumbnail": "/media/flags/2015/May/04/67.png.thumb", "location": "we"}, {"state": "approved", "name": "Sara, Yash, Sravani, Anusha", "id": 66, "tagline": "Poster- Nepal", "image": "/media/flags/2015/May/04/66.png", "random": 1, "thumbnail": "/media/flags/2015/May/04/66.png.thumb", "location": "Westborough, MA USA"}], "page": "19", "next": true}
