{"flags": [{"state": "new", "name": "Lynch School 2nd Grade Winchester MA USA", "id": 275, "tagline": "Love Nepal", "image": "/media/flags/2015/June/15/275.png", "random": 4, "thumbnail": "/media/flags/2015/June/15/275.png.thumb", "location": ""}, {"state": "new", "name": "Lynch School 2nd Grade Winchester MA USA", "id": 274, "tagline": "Be brave", "image": "/media/flags/2015/June/15/274.png", "random": 1, "thumbnail": "/media/flags/2015/June/15/274.png.thumb", "location": ""}, {"state": "new", "name": "Lynch School 2nd Grade Winchester MA USA", "id": 273, "tagline": "May bravery be with you", "image": "/media/flags/2015/June/15/273.png", "random": 3, "thumbnail": "/media/flags/2015/June/15/273.png.thumb", "location": ""}, {"state": "new", "name": "Lynch School 2nd Grade Winchester MA USA", "id": 272, "tagline": "Love", "image": "/media/flags/2015/June/15/272.png", "random": 6, "thumbnail": "/media/flags/2015/June/15/272.png.thumb", "location": ""}, {"state": "new", "name": "Lynch School 2nd Grade Winchester MA USA", "id": 271, "tagline": "Love- Hope you feel better", "image": "/media/flags/2015/June/15/271.png", "random": 6, "thumbnail": "/media/flags/2015/June/15/271.png.thumb", "location": ""}, {"state": "new", "name": "Lynch School 2nd Grade Winchester MA USA", "id": 270, "tagline": "Peace", "image": "/media/flags/2015/June/15/270.png", "random": 2, "thumbnail": "/media/flags/2015/June/15/270.png.thumb", "location": ""}, {"state": "new", "name": "Lynch School 2nd Grade Winchester MA USA", "id": 269, "tagline": "Good luck dragon", "image": "/media/flags/2015/June/15/269.png", "random": 2, "thumbnail": "/media/flags/2015/June/15/269.png.thumb", "location": ""}, {"state": "new", "name": "Lynch School 2nd Grade Winchester MA USA", "id": 268, "tagline": "We love you- Smile", "image": "/media/flags/2015/June/15/268.png", "random": 1, "thumbnail": "/media/flags/2015/June/15/268.png.thumb", "location": ""}, {"state": "new", "name": "Lynch School 2nd Grade Winchester MA USA", "id": 267, "tagline": "We love you so much", "image": "/media/flags/2015/June/15/267.png", "random": 2, "thumbnail": "/media/flags/2015/June/15/267.png.thumb", "location": ""}, {"state": "new", "name": "Lynch School 2nd Grade Winchester MA USA", "id": 266, "tagline": "Hope you feel better", "image": "/media/flags/2015/June/15/266.png", "random": 1, "thumbnail": "/media/flags/2015/June/15/266.png.thumb", "location": ""}], "page": "2", "next": true}
