{"flags": [{"state": "approved", "name": "Akhil Krishnan", "id": 54, "tagline": "", "image": "/media/flags/2015/May/04/54.png", "random": 2, "thumbnail": "/media/flags/2015/May/04/54.png.thumb", "location": "Westborough, MA USA"}, {"state": "approved", "name": "Akhil Krishnan", "id": 53, "tagline": "", "image": "/media/flags/2015/May/04/53.png", "random": 4, "thumbnail": "/media/flags/2015/May/04/53.png.thumb", "location": "Westborough, MA USA"}, {"state": "approved", "name": "Sathvik", "id": 52, "tagline": "", "image": "/media/flags/2015/May/04/52.png", "random": 4, "thumbnail": "/media/flags/2015/May/04/52.png.thumb", "location": "Indian in Westborough, USA"}, {"state": "approved", "name": "", "id": 50, "tagline": "", "image": "/media/flags/2015/May/04/50.png", "random": 6, "thumbnail": "/media/flags/2015/May/04/50.png.thumb", "location": "Westborough, MA USA"}, {"state": "approved", "name": "", "id": 49, "tagline": "", "image": "/media/flags/2015/May/04/49.png", "random": 5, "thumbnail": "/media/flags/2015/May/04/49.png.thumb", "location": "Westborough, MA USA"}, {"state": "approved", "name": "Medha", "id": 48, "tagline": "Be Happy", "image": "/media/flags/2015/May/04/48.png", "random": 6, "thumbnail": "/media/flags/2015/May/04/48.png.thumb", "location": ""}, {"state": "approved", "name": "Eva C", "id": 47, "tagline": "Tulips for Nepal", "image": "/media/flags/2015/May/04/47.png", "random": 1, "thumbnail": "/media/flags/2015/May/04/47.png.thumb", "location": "Westborough, MA USA"}, {"state": "approved", "name": "Eva", "id": 46, "tagline": "Look closely and you will see the Indian Flag", "image": "/media/flags/2015/May/04/46.png", "random": 3, "thumbnail": "/media/flags/2015/May/04/46.png.thumb", "location": "Westborough, MA USA"}, {"state": "approved", "name": "Akhil Krishnan", "id": 45, "tagline": "Flag of Nepal", "image": "/media/flags/2015/May/04/45.png", "random": 3, "thumbnail": "/media/flags/2015/May/04/45.png.thumb", "location": "Westborough, MA USA"}, {"state": "approved", "name": "Shreeya", "id": 44, "tagline": "Mat for you", "image": "/media/flags/2015/May/04/44.png", "random": 4, "thumbnail": "/media/flags/2015/May/04/44.png.thumb", "location": "Westborough, MA USA"}], "page": "21", "next": true}
