{"flags": [{"state": "approved", "name": "Medha", "id": 43, "tagline": "Flag of Nepal", "image": "/media/flags/2015/May/04/43.png", "random": 2, "thumbnail": "/media/flags/2015/May/04/43.png.thumb", "location": "Westborough, MA USA"}, {"state": "approved", "name": "Akhil", "id": 42, "tagline": "", "image": "/media/flags/2015/May/04/42.png", "random": 1, "thumbnail": "/media/flags/2015/May/04/42.png.thumb", "location": "Westborough, MA USA"}, {"state": "approved", "name": "Eva Chaudhury", "id": 41, "tagline": "Feel Better Soon", "image": "/media/flags/2015/May/04/41.png", "random": 4, "thumbnail": "/media/flags/2015/May/04/41.png.thumb", "location": "Westborough, MA USA"}, {"state": "approved", "name": "Rugved", "id": 40, "tagline": "", "image": "/media/flags/2015/May/04/40.png", "random": 5, "thumbnail": "/media/flags/2015/May/04/40.png.thumb", "location": "Westborough, MA USA"}, {"state": "approved", "name": "Anusha Dhama", "id": 39, "tagline": "", "image": "/media/flags/2015/May/04/39.png", "random": 5, "thumbnail": "/media/flags/2015/May/04/39.png.thumb", "location": "Westborough, MA USA"}, {"state": "approved", "name": "Shreeya", "id": 38, "tagline": "", "image": "/media/flags/2015/May/04/38.png", "random": 4, "thumbnail": "/media/flags/2015/May/04/38.png.thumb", "location": "Westborough, MA USA"}, {"state": "approved", "name": "Sara Sharma", "id": 36, "tagline": "Fairies will help", "image": "/media/flags/2015/May/04/36.png", "random": 2, "thumbnail": "/media/flags/2015/May/04/36.png.thumb", "location": "Westborough, MA USA"}, {"state": "approved", "name": "Manoj Sharma", "id": 35, "tagline": "All hearts for Nepal", "image": "/media/flags/2015/May/04/35.png", "random": 1, "thumbnail": "/media/flags/2015/May/04/35.png.thumb", "location": "Westborough, MA USA"}, {"state": "approved", "name": "Sravani", "id": 34, "tagline": "", "image": "/media/flags/2015/May/04/34.png", "random": 4, "thumbnail": "/media/flags/2015/May/04/34.png.thumb", "location": "Westborough, MA USA"}, {"state": "approved", "name": "Anushka", "id": 33, "tagline": "", "image": "/media/flags/2015/May/04/33.png", "random": 4, "thumbnail": "/media/flags/2015/May/04/33.png.thumb", "location": "Westborough, MA USA"}], "page": "22", "next": true}
