{"flags": [{"state": "approved", "name": "Anubhav", "id": 32, "tagline": "My prayer for Nepal.", "image": "/media/flags/2015/May/03/32.png", "random": 2, "thumbnail": "/media/flags/2015/May/03/32.png.thumb", "location": "Boston"}, {"state": "approved", "name": "", "id": 31, "tagline": "", "image": "/media/flags/2015/May/03/31.png", "random": 4, "thumbnail": "/media/flags/2015/May/03/31.png.thumb", "location": ""}, {"state": "approved", "name": "Priya Sharma", "id": 27, "tagline": "We pray for the people of Nepal", "image": "", "random": 4, "thumbnail": "", "location": "Winchester, USA"}, {"state": "approved", "name": "Manoj Sharma", "id": 17, "tagline": "Remain strong!", "image": "/media/flags/2015/May/01/17.png", "random": 6, "thumbnail": "/media/flags/2015/May/01/17.png.thumb", "location": "United States"}, {"state": "approved", "name": "Manoj", "id": 15, "tagline": "Please keep Hope. ", "image": "", "random": 5, "thumbnail": "", "location": ""}, {"state": "approved", "name": "Manish Sampat", "id": 14, "tagline": "We feel it Nepal", "image": "/media/flags/2015/May/01/14.png", "random": 6, "thumbnail": "/media/flags/2015/May/01/14.png.thumb", "location": "Mumbai India"}, {"state": "approved", "name": "Sara Sharma", "id": 13, "tagline": "Fairies will help", "image": "/media/flags/2015/May/01/13.png", "random": 3, "thumbnail": "/media/flags/2015/May/01/13.png.thumb", "location": "Winchester, USA"}, {"state": "approved", "name": "Manish Sampat", "id": 11, "tagline": "We feel it Nepal", "image": "/media/flags/2015/May/01/11.png", "random": 5, "thumbnail": "/media/flags/2015/May/01/11.png.thumb", "location": "Mumbai India"}, {"state": "approved", "name": "Manoj Sharma", "id": 10, "tagline": "\u0939\u092e \u0924\u0941\u092e\u094d\u0939\u093e\u0930\u0947 \u0938\u093e\u0925 \u0939\u0948\u0902 \u092a\u094d\u0930\u092d\u0941 \u0906\u092a\u0915\u094b \u0939\u093f\u092e\u094d\u092e\u0924 \u0926\u0947", "image": "", "random": 2, "thumbnail": "", "location": "Cambridge, USA"}, {"state": "approved", "name": "Manoj Sharma", "id": 9, "tagline": "", "image": "/media/flags/2015/May/01/9.png", "random": 1, "thumbnail": "/media/flags/2015/May/01/9.png.thumb", "location": "Cambridge, USA"}], "page": "23", "next": true}
