{"flags": [{"state": "new", "name": "Lynch School 2nd Grade Winchester MA USA", "id": 265, "tagline": "Hope you feel better", "image": "/media/flags/2015/June/15/265.png", "random": 6, "thumbnail": "/media/flags/2015/June/15/265.png.thumb", "location": ""}, {"state": "new", "name": "Ms. Jackson Lynch School, Winchester MA USA", "id": 264, "tagline": "Sending Peace + Love to you", "image": "/media/flags/2015/June/15/264.png", "random": 6, "thumbnail": "/media/flags/2015/June/15/264.png.thumb", "location": ""}, {"state": "new", "name": "Lynch School 2nd Grade Winchester MA USA", "id": 263, "tagline": "Love and hope", "image": "/media/flags/2015/June/15/263.png", "random": 5, "thumbnail": "/media/flags/2015/June/15/263.png.thumb", "location": ""}, {"state": "new", "name": "Lynch School 2nd Grade Winchester MA USA", "id": 262, "tagline": "Swings and sunshine", "image": "/media/flags/2015/June/15/262.png", "random": 2, "thumbnail": "/media/flags/2015/June/15/262.png.thumb", "location": ""}, {"state": "new", "name": "Lynch School 2nd Grade Winchester MA USA", "id": 261, "tagline": "Good luck dragon", "image": "/media/flags/2015/June/15/261.png", "random": 4, "thumbnail": "/media/flags/2015/June/15/261.png.thumb", "location": ""}, {"state": "new", "name": "Lynch School 2nd Grade Winchester MA USA", "id": 260, "tagline": "Unicorn for you", "image": "/media/flags/2015/June/15/260.png", "random": 5, "thumbnail": "/media/flags/2015/June/15/260.png.thumb", "location": ""}, {"state": "new", "name": "Lynch School 2nd Grade Winchester MA USA", "id": 259, "tagline": "", "image": "/media/flags/2015/June/15/259.png", "random": 3, "thumbnail": "/media/flags/2015/June/15/259.png.thumb", "location": ""}, {"state": "new", "name": "Lynch School 2nd Grade Winchester MA USA", "id": 258, "tagline": "", "image": "/media/flags/2015/June/15/258.png", "random": 3, "thumbnail": "/media/flags/2015/June/15/258.png.thumb", "location": ""}, {"state": "new", "name": "Lynch School 2nd Grade Winchester MA USA", "id": 257, "tagline": "Smile", "image": "/media/flags/2015/June/15/257.png", "random": 3, "thumbnail": "/media/flags/2015/June/15/257.png.thumb", "location": ""}, {"state": "new", "name": "Lynch School 2nd Grade Winchester MA USA", "id": 256, "tagline": "Beach for you", "image": "/media/flags/2015/June/15/256.png", "random": 6, "thumbnail": "/media/flags/2015/June/15/256.png.thumb", "location": ""}], "page": "3", "next": true}
