{"flags": [{"state": "new", "name": "Lynch School 2nd Grade Winchester MA USA", "id": 235, "tagline": "Best of luck", "image": "/media/flags/2015/June/15/235.png", "random": 4, "thumbnail": "/media/flags/2015/June/15/235.png.thumb", "location": ""}, {"state": "new", "name": "Lynch School 2nd Grade Winchester MA USA", "id": 234, "tagline": "All the best", "image": "/media/flags/2015/June/15/234.png", "random": 2, "thumbnail": "/media/flags/2015/June/15/234.png.thumb", "location": ""}, {"state": "new", "name": "Lynch School 2nd Grade Winchester MA USA", "id": 233, "tagline": "", "image": "/media/flags/2015/June/15/233.png", "random": 2, "thumbnail": "/media/flags/2015/June/15/233.png.thumb", "location": ""}, {"state": "new", "name": "Lynch School 2nd Grade Winchester MA USA", "id": 232, "tagline": "The tree of life", "image": "/media/flags/2015/June/15/232.png", "random": 2, "thumbnail": "/media/flags/2015/June/15/232.png.thumb", "location": ""}, {"state": "new", "name": "Lynch School 2nd Grade Winchester MA USA", "id": 231, "tagline": "Be strong Nepal", "image": "/media/flags/2015/June/15/231.png", "random": 3, "thumbnail": "/media/flags/2015/June/15/231.png.thumb", "location": ""}, {"state": "new", "name": "Lynch School 2nd Grade Winchester MA USA", "id": 230, "tagline": "A new home", "image": "/media/flags/2015/June/15/230.png", "random": 5, "thumbnail": "/media/flags/2015/June/15/230.png.thumb", "location": ""}, {"state": "new", "name": "Lynch School 2nd Grade Winchester MA USA", "id": 229, "tagline": "I wish you good luck", "image": "/media/flags/2015/June/15/229.png", "random": 3, "thumbnail": "/media/flags/2015/June/15/229.png.thumb", "location": ""}, {"state": "new", "name": "Lynch School 2nd Grade Winchester MA USA", "id": 228, "tagline": "Vehicles, Art, Pets, Money", "image": "/media/flags/2015/June/15/228.png", "random": 2, "thumbnail": "/media/flags/2015/June/15/228.png.thumb", "location": ""}, {"state": "new", "name": "Lynch School 2nd Grade Winchester MA USA", "id": 227, "tagline": "Food for Luck", "image": "/media/flags/2015/June/15/227.png", "random": 6, "thumbnail": "/media/flags/2015/June/15/227.png.thumb", "location": ""}, {"state": "new", "name": "Lynch School 2nd Grade Winchester MA USA", "id": 226, "tagline": "", "image": "/media/flags/2015/June/15/226.png", "random": 4, "thumbnail": "/media/flags/2015/June/15/226.png.thumb", "location": ""}], "page": "6", "next": true}
